time	altitude	bearing	depression	uaveast	heading	uavnorth	pitch	roll	horizfov	vertfov	sensortype	dayornight	azimerr	eleverr	orleft	orright	ortop	orbottom
[sec]	[feet]	[deg]	[deg]	[meter]	[deg]	[meter]	[deg]	[deg]	[deg]	[deg]	[int]	[int]	[pixel]	[pixel]	[pixel]	[pixel]
15611033857900	27.34	0	0	34.899426	57.99	32.109795	-1.95	0.27	106	79.5	0	1	0	0	0	0	0	0
15611033859233	27.35	0	0	34.899425	58.06	32.109795	-1.97	0.3	106	79.5	0	1	0	0	0	0	0	0
15611033860567	27.35	0	0	34.899425	57.76	32.109795	-2.0	0.31	106	79.5	0	1	0	0	0	0	0	0
15611033861900	27.34	0	0	34.899425	57.93	32.109795	-1.99	0.29	106	79.5	0	1	0	0	0	0	0	0
15611033863233	27.32	0	0	34.899425	58.1	32.109795	-1.97	0.28	106	79.5	0	1	0	0	0	0	0	0
15611033864567	27.32	0	0	34.899425	57.87	32.109795	-1.97	0.33	106	79.5	0	1	0	0	0	0	0	0
15611033865900	27.3	0	0	34.899425	57.76	32.109795	-1.98	0.34	106	79.5	0	1	0	0	0	0	0	0
15611033867233	27.3	0	0	34.899426	58.03	32.109796	-1.98	0.34	106	79.5	0	1	0	0	0	0	0	0
15611033868567	27.3	0	0	34.899426	58.03	32.109796	-1.97	0.32	106	79.5	0	1	0	0	0	0	0	0
15611033869900	27.29	0	0	34.899426	57.7	32.109796	-1.97	0.31	106	79.5	0	1	0	0	0	0	0	0
15611033871233	27.27	0	0	34.899426	58.2	32.109796	-1.97	0.32	106	79.5	0	1	0	0	0	0	0	0
15611033872567	27.27	0	0	34.899426	57.75	32.109796	-1.99	0.29	106	79.5	0	1	0	0	0	0	0	0
15611033873900	27.26	0	0	34.899426	57.89	32.109796	-2.0	0.32	106	79.5	0	1	0	0	0	0	0	0
15611033875233	27.25	0	0	34.899426	57.97	32.109796	-2.01	0.35	106	79.5	0	1	0	0	0	0	0	0
15611033876567	27.25	0	0	34.899426	58.03	32.109796	-1.99	0.35	106	79.5	0	1	0	0	0	0	0	0
15611033877900	27.24	0	0	34.899425	57.93	32.109796	-2.02	0.35	106	79.5	0	1	0	0	0	0	0	0
15611033879233	27.25	0	0	34.899425	57.83	32.109796	-2.05	0.36	106	79.5	0	1	0	0	0	0	0	0
15611033880567	27.25	0	0	34.899425	58.03	32.109796	-2.05	0.29	106	79.5	0	1	0	0	0	0	0	0
15611033881900	27.24	0	0	34.899425	57.69	32.109796	-2.06	0.31	106	79.5	0	1	0	0	0	0	0	0
15611033883233	27.23	0	0	34.899425	57.93	32.109796	-2.07	0.33	106	79.5	0	1	0	0	0	0	0	0
15611033884567	27.23	0	0	34.899425	57.92	32.109796	-2.02	0.33	106	79.5	0	1	0	0	0	0	0	0
15611033885900	27.23	0	0	34.899426	57.96	32.109796	-2.02	0.34	106	79.5	0	1	0	0	0	0	0	0
15611033887233	27.23	0	0	34.899426	57.85	32.109797	-2.02	0.35	106	79.5	0	1	0	0	0	0	0	0
15611033888567	27.23	0	0	34.899426	57.84	32.109797	-2.02	0.35	106	79.5	0	1	0	0	0	0	0	0
15611033889900	27.23	0	0	34.899426	58.42	32.109797	-2.03	0.36	106	79.5	0	1	0	0	0	0	0	0
15611033891233	27.24	0	0	34.899426	65.6	32.109797	-2.08	0.42	106	79.5	0	1	0	0	0	0	0	0
15611033892567	27.24	0	0	34.899426	65.85	32.109797	-2.16	0.51	106	79.5	0	1	0	0	0	0	0	0
15611033893900	27.23	0	0	34.899426	64.63	32.109797	-2.19	0.65	106	79.5	0	1	0	0	0	0	0	0
15611033895233	27.28	0	0	34.899426	64.46	32.109797	-1.76	0.07	106	79.5	0	1	0	0	0	0	0	0
15611033896567	27.28	0	0	34.899426	64.12	32.109797	-1.07	-0.5	106	79.5	0	1	0	0	0	0	0	0
15611033897900	27.37	0	0	34.899426	64.54	32.109797	-0.83	-0.67	106	79.5	0	1	0	0	0	0	0	0
15611033899233	27.5	0	0	34.899426	64.09	32.109797	-0.84	0.0	106	79.5	0	1	0	0	0	0	0	0
15611033900567	27.5	0	0	34.899426	63.25	32.109797	-0.35	0.82	106	79.5	0	1	0	0	0	0	0	0
15611033901900	27.68	0	0	34.899427	62.97	32.109798	-0.35	0.86	106	79.5	0	1	0	0	0	0	0	0
15611033903233	27.9	0	0	34.899427	63.3	32.109798	-0.83	1.24	106	79.5	0	1	0	0	0	0	0	0
15611033904567	27.9	0	0	34.899427	63.16	32.109798	-1.33	0.87	106	79.5	0	1	0	0	0	0	0	0
15611033905900	28.17	0	0	34.899428	64.09	32.109798	-1.79	-0.09	106	79.5	0	1	0	0	0	0	0	0
15611033907233	28.39	0	0	34.899429	64.74	32.109799	-2.26	-2.15	106	79.5	0	1	0	0	0	0	0	0
15611033908567	28.39	0	0	34.899429	64.84	32.109799	-2.45	-2.98	106	79.5	0	1	0	0	0	0	0	0
15611033909900	28.57	0	0	34.89943	65.0	32.109799	-2.37	-3.6	106	79.5	0	1	0	0	0	0	0	0
15611033911233	28.76	0	0	34.899431	62.1	32.109799	-2.73	-4.24	106	79.5	0	1	0	0	0	0	0	0
15611033912567	28.76	0	0	34.899431	60.85	32.109799	-2.96	-4.0	106	79.5	0	1	0	0	0	0	0	0
15611033913900	28.91	0	0	34.899432	61.26	32.109799	-3.22	-3.05	106	79.5	0	1	0	0	0	0	0	0
15611033915233	28.92	0	0	34.899433	65.37	32.109799	-4.52	-3.63	106	79.5	0	1	0	0	0	0	0	0
15611033916567	28.92	0	0	34.899433	65.69	32.109799	-4.84	-3.39	106	79.5	0	1	0	0	0	0	0	0
15611033917900	28.88	0	0	34.899434	65.42	32.109798	-3.96	-2.21	106	79.5	0	1	0	0	0	0	0	0
15611033919233	28.85	0	0	34.899434	63.67	32.109798	-2.77	-1.69	106	79.5	0	1	0	0	0	0	0	0
15611033920567	28.85	0	0	34.899434	64.0	32.109798	-3.11	-2.02	106	79.5	0	1	0	0	0	0	0	0
15611033921900	28.81	0	0	34.899434	64.37	32.109797	-3.86	-2.16	106	79.5	0	1	0	0	0	0	0	0
15611033923233	28.83	0	0	34.899435	64.61	32.109797	-4.04	-2.56	106	79.5	0	1	0	0	0	0	0	0
15611033924567	28.83	0	0	34.899435	65.0	32.109797	-3.91	-1.37	106	79.5	0	1	0	0	0	0	0	0
15611033925900	28.87	0	0	34.899435	63.76	32.109797	-4.41	0.47	106	79.5	0	1	0	0	0	0	0	0
15611033927233	28.94	0	0	34.899435	62.5	32.109796	-4.29	0.83	106	79.5	0	1	0	0	0	0	0	0
15611033928567	28.94	0	0	34.899435	64.2	32.109796	-4.33	-2.97	106	79.5	0	1	0	0	0	0	0	0
15611033929900	29.05	0	0	34.899435	65.26	32.109796	-4.4	-2.11	106	79.5	0	1	0	0	0	0	0	0
15611033931233	29.13	0	0	34.899435	65.17	32.109795	-4.63	-0.91	106	79.5	0	1	0	0	0	0	0	0
15611033932567	29.13	0	0	34.899435	64.84	32.109795	-4.97	-0.93	106	79.5	0	1	0	0	0	0	0	0
15611033933900	29.28	0	0	34.899434	64.13	32.109795	-3.54	-0.36	106	79.5	0	1	0	0	0	0	0	0
15611033935233	29.45	0	0	34.899434	63.67	32.109794	-2.96	-0.51	106	79.5	0	1	0	0	0	0	0	0
15611033936567	29.45	0	0	34.899434	63.77	32.109794	-2.81	-0.78	106	79.5	0	1	0	0	0	0	0	0
15611033937900	29.6	0	0	34.899434	64.42	32.109794	-4.1	-1.33	106	79.5	0	1	0	0	0	0	0	0
15611033939233	29.7	0	0	34.899434	64.74	32.109794	-4.29	-1.61	106	79.5	0	1	0	0	0	0	0	0
15611033940567	29.7	0	0	34.899434	64.7	32.109794	-3.77	-2.01	106	79.5	0	1	0	0	0	0	0	0
15611033941900	29.92	0	0	34.899434	64.81	32.109794	-3.29	-2.48	106	79.5	0	1	0	0	0	0	0	0
15611033943233	30.05	0	0	34.899433	65.35	32.109794	-9.59	-2.78	106	79.5	0	1	0	0	0	0	0	0
15611033944567	30.05	0	0	34.899433	66.91	32.109794	-14.23	-3.42	106	79.5	0	1	0	0	0	0	0	0
15611033945900	30.2	0	0	34.899432	68.29	32.109794	-15.45	-4.01	106	79.5	0	1	0	0	0	0	0	0
15611033947233	30.35	0	0	34.899431	67.36	32.109794	-6.59	-4.81	106	79.5	0	1	0	0	0	0	0	0
15611033948567	30.35	0	0	34.899431	66.26	32.109794	-3.0	-3.93	106	79.5	0	1	0	0	0	0	0	0
15611033949900	30.46	0	0	34.89943	64.41	32.109793	-1.53	-2.0	106	79.5	0	1	0	0	0	0	0	0
15611033951233	30.56	0	0	34.899429	61.77	32.109793	-0.83	-0.43	106	79.5	0	1	0	0	0	0	0	0
15611033952567	30.56	0	0	34.899429	60.85	32.109793	0.53	0.46	106	79.5	0	1	0	0	0	0	0	0
15611033953900	30.61	0	0	34.899428	60.48	32.109793	0.69	0.4	106	79.5	0	1	0	0	0	0	0	0
15611033955233	30.66	0	0	34.899426	61.27	32.109793	-1.98	0.38	106	79.5	0	1	0	0	0	0	0	0
15611033956567	30.66	0	0	34.899426	63.84	32.109793	-10.53	0.86	106	79.5	0	1	0	0	0	0	0	0
15611033957900	30.78	0	0	34.899425	64.2	32.109792	-9.72	0.65	106	79.5	0	1	0	0	0	0	0	0
15611033959233	30.88	0	0	34.899424	63.25	32.109792	-5.25	0.25	106	79.5	0	1	0	0	0	0	0	0
15611033960567	30.88	0	0	34.899424	61.7	32.109792	-1.58	0.11	106	79.5	0	1	0	0	0	0	0	0
15611033961900	30.92	0	0	34.899423	61.68	32.109792	0.03	-0.12	106	79.5	0	1	0	0	0	0	0	0
15611033963233	30.97	0	0	34.899422	61.79	32.109792	0.33	0.0	106	79.5	0	1	0	0	0	0	0	0
15611033964567	30.97	0	0	34.899422	61.48	32.109792	1.03	0.48	106	79.5	0	1	0	0	0	0	0	0
15611033965900	31.01	0	0	34.899422	61.06	32.109792	0.35	0.67	106	79.5	0	1	0	0	0	0	0	0
15611033967233	31.08	0	0	34.899421	61.76	32.109792	-1.97	0.14	106	79.5	0	1	0	0	0	0	0	0
15611033968567	31.08	0	0	34.899421	63.43	32.109792	-5.11	-0.6	106	79.5	0	1	0	0	0	0	0	0
15611033969900	31.11	0	0	34.89942	64.64	32.109792	-9.29	0.0	106	79.5	0	1	0	0	0	0	0	0
15611033971233	31.16	0	0	34.89942	64.06	32.109792	-9.67	0.7	106	79.5	0	1	0	0	0	0	0	0
15611033972567	31.16	0	0	34.89942	63.02	32.109792	-4.88	-0.31	106	79.5	0	1	0	0	0	0	0	0
15611033973900	31.22	0	0	34.899419	62.81	32.109791	-2.16	-1.11	106	79.5	0	1	0	0	0	0	0	0
15611033975233	31.25	0	0	34.899418	62.95	32.109791	-1.2	-0.56	106	79.5	0	1	0	0	0	0	0	0
15611033976567	31.25	0	0	34.899418	61.17	32.109791	2.64	-0.01	106	79.5	0	1	0	0	0	0	0	0
15611033977900	31.32	0	0	34.899418	58.89	32.109791	7.47	0.56	106	79.5	0	1	0	0	0	0	0	0
15611033979233	31.37	0	0	34.899418	56.86	32.109791	9.91	0.86	106	79.5	0	1	0	0	0	0	0	0
15611033980567	31.37	0	0	34.899418	57.61	32.109791	5.79	1.24	106	79.5	0	1	0	0	0	0	0	0
15611033981900	31.42	0	0	34.899419	59.74	32.10979	-0.63	1.21	106	79.5	0	1	0	0	0	0	0	0
15611033983233	31.45	0	0	34.89942	62.05	32.109789	-5.97	1.11	106	79.5	0	1	0	0	0	0	0	0
15611033984567	31.45	0	0	34.89942	63.75	32.109789	-10.06	0.97	106	79.5	0	1	0	0	0	0	0	0
15611033985900	31.46	0	0	34.89942	64.24	32.109788	-10.62	0.57	106	79.5	0	1	0	0	0	0	0	0
15611033987233	31.45	0	0	34.899421	64.84	32.109787	-11.44	1.16	106	79.5	0	1	0	0	0	0	0	0
15611033988567	31.45	0	0	34.899421	64.36	32.109787	-11.85	1.74	106	79.5	0	1	0	0	0	0	0	0
15611033989900	31.42	0	0	34.899421	64.54	32.109787	-10.27	0.68	106	79.5	0	1	0	0	0	0	0	0
15611033991233	31.4	0	0	34.899421	64.9	32.109787	-9.24	0.32	106	79.5	0	1	0	0	0	0	0	0
15611033992567	31.4	0	0	34.899421	64.83	32.109787	-7.76	-0.39	106	79.5	0	1	0	0	0	0	0	0
15611033993900	31.33	0	0	34.89942	64.66	32.109788	-4.18	-0.54	106	79.5	0	1	0	0	0	0	0	0
15611033995233	31.26	0	0	34.89942	63.15	32.109788	-3.13	0.92	106	79.5	0	1	0	0	0	0	0	0
15611033996567	31.26	0	0	34.89942	62.23	32.109788	-2.29	1.2	106	79.5	0	1	0	0	0	0	0	0
15611033997900	31.23	0	0	34.899419	62.06	32.109788	-1.63	0.54	106	79.5	0	1	0	0	0	0	0	0
15611033999233	31.19	0	0	34.899418	61.68	32.109788	-1.02	0.52	106	79.5	0	1	0	0	0	0	0	0
15611034000567	31.19	0	0	34.899418	61.41	32.109788	-1.23	1.03	106	79.5	0	1	0	0	0	0	0	0
15611034001900	31.13	0	0	34.899418	61.32	32.109789	-1.27	1.42	106	79.5	0	1	0	0	0	0	0	0
15611034003233	31.08	0	0	34.899418	61.06	32.109789	-1.94	1.47	106	79.5	0	1	0	0	0	0	0	0
15611034004567	31.08	0	0	34.899418	61.18	32.109789	-2.24	1.57	106	79.5	0	1	0	0	0	0	0	0
15611034005900	31.01	0	0	34.899418	60.93	32.109789	-2.63	1.86	106	79.5	0	1	0	0	0	0	0	0
15611034007233	30.94	0	0	34.899418	61.09	32.109789	-3.09	1.65	106	79.5	0	1	0	0	0	0	0	0
15611034008567	30.94	0	0	34.899418	61.69	32.109789	-2.85	0.99	106	79.5	0	1	0	0	0	0	0	0
15611034009900	30.87	0	0	34.899417	61.38	32.109789	-2.57	1.07	106	79.5	0	1	0	0	0	0	0	0
15611034011233	30.78	0	0	34.899417	60.88	32.109789	-2.48	1.12	106	79.5	0	1	0	0	0	0	0	0
15611034012567	30.78	0	0	34.899417	61.16	32.109789	-2.08	0.74	106	79.5	0	1	0	0	0	0	0	0
15611034013900	30.71	0	0	34.899417	60.82	32.109789	-1.86	0.76	106	79.5	0	1	0	0	0	0	0	0
15611034015233	30.62	0	0	34.899417	60.6	32.109789	-1.86	0.92	106	79.5	0	1	0	0	0	0	0	0
15611034016567	30.62	0	0	34.899417	60.61	32.109789	-2.15	1.29	106	79.5	0	1	0	0	0	0	0	0
